[
  { "id": "1", "name": "新丰县人民医院", "wgs_lon": 114.210471400000003, "wgs_lat": 24.042266999999999, "SAMPLE_1": 174.0 },
  { "id": "2", "name": "岭南红叶世界", "wgs_lon": 114.156482699999998, "wgs_lat": 24.237523400000001, "SAMPLE_1": 826.0 },
  { "id": "3", "name": "云天海", "wgs_lon": 114.122745800000004, "wgs_lat": 23.973382300000001, "SAMPLE_1": 240.0 },
  { "id": "4", "name": "应急救援中心", "wgs_lon": 114.220463499999994, "wgs_lat": 24.0700316, "SAMPLE_1": 170.0 },
  { "id": "5", "name": "樱花峪", "wgs_lon": 114.224926400000001, "wgs_lat": 24.183866600000002, "SAMPLE_1": 567.0 },
  { "id": "6", "name": "沙田镇", "wgs_lon": 113.921200400000004, "wgs_lat": 24.000861700000002, "SAMPLE_1": 197.0 },
  { "id": "7", "name": "四季田园", "wgs_lon": 114.335111499999996, "wgs_lat": 24.111477799999999, "SAMPLE_1": 125.0 },
  { "id": "8", "name": "高桥镇童爱教育研学基地", "wgs_lon": 114.123611499999996, "wgs_lat": 24.0525825, "SAMPLE_1": 197.0 },
  { "id": "9", "name": "大风门", "wgs_lon": 114.196750800000004, "wgs_lat": 24.0798974, "SAMPLE_1": 540.0 },
  { "id": "10", "name": "总部枢纽起降基地", "wgs_lon": 114.152675299999999, "wgs_lat": 24.019765799999998, "SAMPLE_1": 175.0 },
  { "id": "11", "name": "广汽试验场起降点坐标", "wgs_lon": 114.124795800000001, "wgs_lat": 24.015582500000001, "SAMPLE_1": 248.0 }
]
